{
"type": "FeatureCollection",
"name": "SANDW_21_toilets",
"crs": { "type": "name", "properties": { "name": "urn:ogc:def:crs:OGC:1.3:CRS84" } },
"features": [
{ "type": "Feature", "properties": { "name": "Unknown", "payment_info": "Free", "accessible": "False", "radar": "Unknown", "women": "Unknown", "men": "Unknown", "baby_change": "Unknown", "Mon": "Unknown", "Tue": "Unknown", "Wed": "Unknown", "Thu": "Unknown", "Fri": "Unknown", "Sat": "Unknown", "Sun": "Unknown", "index_right": 597, "park_offical_id": "SANDW_21" }, "geometry": { "type": "Point", "coordinates": [ -1.9942094, 52.5175799 ] } },
{ "type": "Feature", "properties": { "name": "Unknown", "payment_info": "Free", "accessible": "False", "radar": "Unknown", "women": "Unknown", "men": "Unknown", "baby_change": "Unknown", "Mon": "Unknown", "Tue": "Unknown", "Wed": "Unknown", "Thu": "Unknown", "Fri": "Unknown", "Sat": "Unknown", "Sun": "Unknown", "index_right": 597, "park_offical_id": "SANDW_21" }, "geometry": { "type": "Point", "coordinates": [ -1.9926966, 52.5190056 ] } },
{ "type": "Feature", "properties": { "name": "King George Pavilion", "payment_info": "Free", "accessible": "True", "radar": "True", "women": "True", "men": "True", "baby_change": "True", "Mon": "09:00-18:00", "Tue": "09:00-18:00", "Wed": "09:00-18:00", "Thu": "09:00-18:00", "Fri": "09:00-18:00", "Sat": "09:00-18:00", "Sun": "09:00-18:00", "index_right": 597, "park_offical_id": "SANDW_21" }, "geometry": { "type": "Point", "coordinates": [ -1.977989674, 52.520818595 ] } },
{ "type": "Feature", "properties": { "name": "Kings Square Shopping Centre Sandwell Centre", "payment_info": "Cost unknown", "accessible": "False", "radar": "True", "women": "True", "men": "True", "baby_change": "True", "Mon": "09:00-17:00", "Tue": "09:00-17:00", "Wed": "09:00-17:00", "Thu": "09:00-17:00", "Fri": "09:00-17:00", "Sat": "09:00-17:00", "Sun": "Closed", "index_right": 597, "park_offical_id": "SANDW_21" }, "geometry": { "type": "Point", "coordinates": [ -1.992853625, 52.517264738 ] } },
{ "type": "Feature", "properties": { "name": "104105 High Street", "payment_info": "Free", "accessible": "False", "radar": "False", "women": "True", "men": "True", "baby_change": "False", "Mon": "Unknown", "Tue": "Unknown", "Wed": "Unknown", "Thu": "Unknown", "Fri": "Unknown", "Sat": "Unknown", "Sun": "Unknown", "index_right": 597, "park_offical_id": "SANDW_21" }, "geometry": { "type": "Point", "coordinates": [ -1.990574598, 52.516566894 ] } },
{ "type": "Feature", "properties": { "name": "Sandwell Park Farm", "payment_info": "Admission fees to site", "accessible": "True", "radar": "False", "women": "True", "men": "True", "baby_change": "True", "Mon": "09:00-17:00", "Tue": "09:00-17:00", "Wed": "09:00-17:00", "Thu": "09:00-17:00", "Fri": "09:00-17:00", "Sat": "09:00-17:00", "Sun": "09:00-17:00", "index_right": 597, "park_offical_id": "SANDW_21" }, "geometry": { "type": "Point", "coordinates": [ -1.972480416, 52.521275567 ] } },
{ "type": "Feature", "properties": { "name": "Unknown", "payment_info": "Free", "accessible": "False", "radar": "Unknown", "women": "Unknown", "men": "Unknown", "baby_change": "Unknown", "Mon": "Unknown", "Tue": "Unknown", "Wed": "Unknown", "Thu": "Unknown", "Fri": "Unknown", "Sat": "Unknown", "Sun": "Unknown", "index_right": 597, "park_offical_id": "SANDW_21" }, "geometry": { "type": "Point", "coordinates": [ -1.97790896, 52.52076712 ] } },
{ "type": "Feature", "properties": { "name": "Dartmouth Park Fort", "payment_info": "Free", "accessible": "False", "radar": "True", "women": "True", "men": "True", "baby_change": "True", "Mon": "09:00-17:00", "Tue": "09:00-17:00", "Wed": "09:00-17:00", "Thu": "09:00-17:00", "Fri": "09:00-17:00", "Sat": "09:00-17:00", "Sun": "09:00-17:00", "index_right": 597, "park_offical_id": "SANDW_21" }, "geometry": { "type": "Point", "coordinates": [ -1.983252168, 52.520994857 ] } },
{ "type": "Feature", "properties": { "name": "Sandwell Valley Country Park Salters Lane", "payment_info": "Free", "accessible": "False", "radar": "True", "women": "True", "men": "True", "baby_change": "True", "Mon": "Unknown", "Tue": "Unknown", "Wed": "Unknown", "Thu": "Unknown", "Fri": "Unknown", "Sat": "Unknown", "Sun": "Unknown", "index_right": 597, "park_offical_id": "SANDW_21" }, "geometry": { "type": "Point", "coordinates": [ -1.980779171, 52.524546044 ] } }
]
}
