{
"type": "FeatureCollection",
"name": "MALHI_56_toilets",
"crs": { "type": "name", "properties": { "name": "urn:ogc:def:crs:OGC:1.3:CRS84" } },
"features": [
{ "type": "Feature", "properties": { "name": "Unknown", "payment_info": "Free", "accessible": "False", "radar": "Unknown", "women": "Unknown", "men": "Unknown", "baby_change": "Unknown", "Mon": "Unknown", "Tue": "Unknown", "Wed": "Unknown", "Thu": "Unknown", "Fri": "Unknown", "Sat": "Unknown", "Sun": "Unknown", "index_right": 74, "park_offical_id": "MALHI_56" }, "geometry": { "type": "Point", "coordinates": [ -2.3333507, 52.1099747 ] } },
{ "type": "Feature", "properties": { "name": "Grange Road ", "payment_info": "Free", "accessible": "True", "radar": "True", "women": "True", "men": "True", "baby_change": "Unknown", "Mon": "07:00-19:00", "Tue": "07:00-19:00", "Wed": "07:00-19:00", "Thu": "07:00-19:00", "Fri": "07:00-19:00", "Sat": "07:00-19:00", "Sun": "07:00-19:00", "index_right": 74, "park_offical_id": "MALHI_56" }, "geometry": { "type": "Point", "coordinates": [ -2.326648506, 52.110979198 ] } },
{ "type": "Feature", "properties": { "name": "Unknown", "payment_info": "Free", "accessible": "False", "radar": "True", "women": "True", "men": "True", "baby_change": "Unknown", "Mon": "07:00-19:00", "Tue": "07:00-19:00", "Wed": "07:00-19:00", "Thu": "07:00-19:00", "Fri": "07:00-19:00", "Sat": "07:00-19:00", "Sun": "07:00-19:00", "index_right": 74, "park_offical_id": "MALHI_56" }, "geometry": { "type": "Point", "coordinates": [ -2.320179, 52.112183 ] } },
{ "type": "Feature", "properties": { "name": "Edith Walk", "payment_info": "Free", "accessible": "False", "radar": "Unknown", "women": "True", "men": "True", "baby_change": "Unknown", "Mon": "07:00-19:00", "Tue": "07:00-19:00", "Wed": "07:00-19:00", "Thu": "07:00-19:00", "Fri": "07:00-19:00", "Sat": "07:00-19:00", "Sun": "07:00-19:00", "index_right": 74, "park_offical_id": "MALHI_56" }, "geometry": { "type": "Point", "coordinates": [ -2.3297416, 52.1119495 ] } },
{ "type": "Feature", "properties": { "name": "Great Malvern Station", "payment_info": "Free", "accessible": "True", "radar": "Unknown", "women": "Unknown", "men": "Unknown", "baby_change": "False", "Mon": "Unknown", "Tue": "Unknown", "Wed": "Unknown", "Thu": "Unknown", "Fri": "Unknown", "Sat": "Unknown", "Sun": "Unknown", "index_right": 74, "park_offical_id": "MALHI_56" }, "geometry": { "type": "Point", "coordinates": [ -2.318281662, 52.10920685 ] } }
]
}
