{
"type": "FeatureCollection",
"name": "NUNBE_19_toilets",
"crs": { "type": "name", "properties": { "name": "urn:ogc:def:crs:OGC:1.3:CRS84" } },
"features": [
{ "type": "Feature", "properties": { "name": "Pringles Leisure Center", "payment_info": "Free", "accessible": "Unknown", "radar": "Unknown", "women": "True", "men": "True", "baby_change": "Unknown", "Mon": "Unknown", "Tue": "Unknown", "Wed": "Unknown", "Thu": "Unknown", "Fri": "Unknown", "Sat": "Unknown", "Sun": "Unknown", "index_right": 11, "park_offical_id": "NUNBE_19" }, "geometry": { "type": "Point", "coordinates": [ -1.462549567, 52.515610132 ] } },
{ "type": "Feature", "properties": { "name": "ASDA Nuneaton", "payment_info": "Free", "accessible": "True", "radar": "Unknown", "women": "True", "men": "True", "baby_change": "True", "Mon": "06:00-00:00", "Tue": "00:00-00:00", "Wed": "00:00-00:00", "Thu": "00:00-00:00", "Fri": "00:00-00:00", "Sat": "00:00-20:00", "Sun": "10:00-16:00", "index_right": 11, "park_offical_id": "NUNBE_19" }, "geometry": { "type": "Point", "coordinates": [ -1.466588974, 52.526306844 ] } },
{ "type": "Feature", "properties": { "name": "Nuneaton Bus Station", "payment_info": "Free", "accessible": "False", "radar": "True", "women": "True", "men": "True", "baby_change": "True", "Mon": "Unknown", "Tue": "Unknown", "Wed": "Unknown", "Thu": "Unknown", "Fri": "Unknown", "Sat": "Unknown", "Sun": "Unknown", "index_right": 11, "park_offical_id": "NUNBE_19" }, "geometry": { "type": "Point", "coordinates": [ -1.467131768, 52.524021869 ] } },
{ "type": "Feature", "properties": { "name": "Nuneaton Station", "payment_info": "Free", "accessible": "True", "radar": "True", "women": "True", "men": "True", "baby_change": "True", "Mon": "06:00-22:00", "Tue": "06:00-22:00", "Wed": "06:00-22:00", "Thu": "06:00-22:00", "Fri": "06:00-21:00", "Sat": "06:00-21:00", "Sun": "09:30-22:00", "index_right": 11, "park_offical_id": "NUNBE_19" }, "geometry": { "type": "Point", "coordinates": [ -1.463873901, 52.52638876 ] } },
{ "type": "Feature", "properties": { "name": "Rope WalkShopping Centre", "payment_info": "Free", "accessible": "False", "radar": "True", "women": "True", "men": "True", "baby_change": "True", "Mon": "Unknown", "Tue": "Unknown", "Wed": "Unknown", "Thu": "Unknown", "Fri": "Unknown", "Sat": "Unknown", "Sun": "Unknown", "index_right": 11, "park_offical_id": "NUNBE_19" }, "geometry": { "type": "Point", "coordinates": [ -1.469550133, 52.521504052 ] } }
]
}
