{
"type": "FeatureCollection",
"name": "SHROP_63_toilets",
"crs": { "type": "name", "properties": { "name": "urn:ogc:def:crs:OGC:1.3:CRS84" } },
"features": [
{ "type": "Feature", "properties": { "name": "Abbey Foregate", "payment_info": "Free", "accessible": "False", "radar": "True", "women": "True", "men": "True", "baby_change": "False", "Mon": "09:00-18:00", "Tue": "09:00-18:00", "Wed": "09:00-18:00", "Thu": "09:00-18:00", "Fri": "09:00-18:00", "Sat": "09:00-18:00", "Sun": "09:00-18:00", "index_right": 220, "park_offical_id": "SHROP_63" }, "geometry": { "type": "Point", "coordinates": [ -2.744575739, 52.706590922 ] } },
{ "type": "Feature", "properties": { "name": "Shrewsbury Railway Station", "payment_info": "Free", "accessible": "False", "radar": "True", "women": "True", "men": "True", "baby_change": "True", "Mon": "09:00-17:00", "Tue": "09:00-17:00", "Wed": "09:00-17:00", "Thu": "09:00-17:00", "Fri": "09:00-17:00", "Sat": "09:00-17:00", "Sun": "09:00-17:00", "index_right": 220, "park_offical_id": "SHROP_63" }, "geometry": { "type": "Point", "coordinates": [ -2.7487182, 52.7114008 ] } },
{ "type": "Feature", "properties": { "name": "Butcher Row", "payment_info": "Free", "accessible": "True", "radar": "True", "women": "True", "men": "True", "baby_change": "True", "Mon": "09:00-18:00", "Tue": "09:00-18:00", "Wed": "09:00-18:00", "Thu": "09:00-18:00", "Fri": "09:00-18:00", "Sat": "09:00-16:00", "Sun": "09:00-18:00", "index_right": 220, "park_offical_id": "SHROP_63" }, "geometry": { "type": "Point", "coordinates": [ -2.7526333, 52.7079333 ] } },
{ "type": "Feature", "properties": { "name": "Barker St Car Park", "payment_info": "Free", "accessible": "False", "radar": "Unknown", "women": "Unknown", "men": "Unknown", "baby_change": "Unknown", "Mon": "Unknown", "Tue": "Unknown", "Wed": "Unknown", "Thu": "Unknown", "Fri": "Unknown", "Sat": "Unknown", "Sun": "Unknown", "index_right": 220, "park_offical_id": "SHROP_63" }, "geometry": { "type": "Point", "coordinates": [ -2.756064534, 52.70869093 ] } },
{ "type": "Feature", "properties": { "name": "Darwin Shopping Centre", "payment_info": "Free", "accessible": "True", "radar": "True", "women": "True", "men": "True", "baby_change": "True", "Mon": "09:00-17:00", "Tue": "09:00-17:00", "Wed": "09:00-17:00", "Thu": "09:00-17:00", "Fri": "09:00-17:00", "Sat": "09:00-17:00", "Sun": "09:00-17:00", "index_right": 220, "park_offical_id": "SHROP_63" }, "geometry": { "type": "Point", "coordinates": [ -2.75277257, 52.709507954 ] } },
{ "type": "Feature", "properties": { "name": "Shrewsbury Indoor Market", "payment_info": "Free", "accessible": "True", "radar": "True", "women": "True", "men": "True", "baby_change": "True", "Mon": "Closed", "Tue": "08:00-16:00", "Wed": "08:00-16:00", "Thu": "08:00-16:00", "Fri": "08:00-16:00", "Sat": "08:00-16:00", "Sun": "Closed", "index_right": 220, "park_offical_id": "SHROP_63" }, "geometry": { "type": "Point", "coordinates": [ -2.756575942, 52.707637855 ] } },
{ "type": "Feature", "properties": { "name": "Shrewsbury Bus Station Toilets", "payment_info": "Free", "accessible": "True", "radar": "True", "women": "True", "men": "True", "baby_change": "False", "Mon": "09:00-17:00", "Tue": "09:00-17:00", "Wed": "09:00-17:00", "Thu": "09:00-17:00", "Fri": "09:00-17:00", "Sat": "09:00-17:00", "Sun": "09:00-17:00", "index_right": 220, "park_offical_id": "SHROP_63" }, "geometry": { "type": "Point", "coordinates": [ -2.752547264, 52.710606463 ] } },
{ "type": "Feature", "properties": { "name": "Sydney Avenue Shrewsbury", "payment_info": "Free", "accessible": "False", "radar": "False", "women": "True", "men": "True", "baby_change": "Unknown", "Mon": "Closed", "Tue": "Closed", "Wed": "Closed", "Thu": "Closed", "Fri": "10:00-16:00", "Sat": "10:00-16:00", "Sun": "10:00-16:00", "index_right": 220, "park_offical_id": "SHROP_63" }, "geometry": { "type": "Point", "coordinates": [ -2.74056673, 52.713330703 ] } }
]
}
