{
"type": "FeatureCollection",
"name": "WYRFO_1_toilets",
"crs": { "type": "name", "properties": { "name": "urn:ogc:def:crs:OGC:1.3:CRS84" } },
"features": [
{ "type": "Feature", "properties": { "name": "Swan Centre Vicar Street", "payment_info": "Cost unknown", "accessible": "False", "radar": "Unknown", "women": "True", "men": "True", "baby_change": "False", "Mon": "Unknown", "Tue": "Unknown", "Wed": "Unknown", "Thu": "Unknown", "Fri": "Unknown", "Sat": "Unknown", "Sun": "Unknown", "index_right": 1, "park_offical_id": "WYRFO_1" }, "geometry": { "type": "Point", "coordinates": [ -2.2489821, 52.3875298 ] } },
{ "type": "Feature", "properties": { "name": "Starbucks", "payment_info": "Free", "accessible": "False", "radar": "Unknown", "women": "Unknown", "men": "Unknown", "baby_change": "Unknown", "Mon": "Unknown", "Tue": "Unknown", "Wed": "Unknown", "Thu": "Unknown", "Fri": "Unknown", "Sat": "Unknown", "Sun": "Unknown", "index_right": 1, "park_offical_id": "WYRFO_1" }, "geometry": { "type": "Point", "coordinates": [ -2.2502983, 52.3868044 ] } },
{ "type": "Feature", "properties": { "name": "Kidderminster Station", "payment_info": "Cost unknown", "accessible": "True", "radar": "False", "women": "Unknown", "men": "Unknown", "baby_change": "False", "Mon": "09:00-17:00", "Tue": "09:00-17:00", "Wed": "09:00-17:00", "Thu": "09:00-17:00", "Fri": "09:00-17:00", "Sat": "09:00-17:00", "Sun": "09:00-17:00", "index_right": 1, "park_offical_id": "WYRFO_1" }, "geometry": { "type": "Point", "coordinates": [ -2.238560915, 52.384525607 ] } },
{ "type": "Feature", "properties": { "name": "Car Park Market Street", "payment_info": "Free", "accessible": "False", "radar": "Unknown", "women": "True", "men": "True", "baby_change": "True", "Mon": "Unknown", "Tue": "Unknown", "Wed": "Unknown", "Thu": "Unknown", "Fri": "Unknown", "Sat": "Unknown", "Sun": "Unknown", "index_right": 1, "park_offical_id": "WYRFO_1" }, "geometry": { "type": "Point", "coordinates": [ -2.2477152, 52.385221 ] } },
{ "type": "Feature", "properties": { "name": "Unknown", "payment_info": "Free", "accessible": "False", "radar": "Unknown", "women": "Unknown", "men": "Unknown", "baby_change": "Unknown", "Mon": "Unknown", "Tue": "Unknown", "Wed": "Unknown", "Thu": "Unknown", "Fri": "Unknown", "Sat": "Unknown", "Sun": "Unknown", "index_right": 1, "park_offical_id": "WYRFO_1" }, "geometry": { "type": "Point", "coordinates": [ -2.239972, 52.3842762 ] } }
]
}
