{
"type": "FeatureCollection",
"name": "RUGBY_29_toilets",
"crs": { "type": "name", "properties": { "name": "urn:ogc:def:crs:OGC:1.3:CRS84" } },
"features": [
{ "type": "Feature", "properties": { "name": "Clock Towers", "payment_info": "Free", "accessible": "True", "radar": "False", "women": "True", "men": "True", "baby_change": "True", "Mon": "09:00-17:00", "Tue": "09:00-17:00", "Wed": "09:00-17:00", "Thu": "09:00-17:00", "Fri": "09:00-17:00", "Sat": "09:00-17:00", "Sun": "09:00-17:00", "index_right": 42, "park_offical_id": "RUGBY_29" }, "geometry": { "type": "Point", "coordinates": [ -1.26370132, 52.373673503 ] } },
{ "type": "Feature", "properties": { "name": "Rugby Train Station", "payment_info": "Free", "accessible": "True", "radar": "True", "women": "True", "men": "True", "baby_change": "True", "Mon": "Unknown", "Tue": "Unknown", "Wed": "Unknown", "Thu": "Unknown", "Fri": "Unknown", "Sat": "Unknown", "Sun": "Unknown", "index_right": 42, "park_offical_id": "RUGBY_29" }, "geometry": { "type": "Point", "coordinates": [ -1.251175404, 52.37897709 ] } },
{ "type": "Feature", "properties": { "name": "Benn Hall Newbold Road", "payment_info": "Cost unknown", "accessible": "False", "radar": "Unknown", "women": "True", "men": "True", "baby_change": "True", "Mon": "09:00-17:00", "Tue": "09:00-17:00", "Wed": "09:00-17:00", "Thu": "09:00-17:00", "Fri": "09:00-17:00", "Sat": "Closed", "Sun": "Closed", "index_right": 42, "park_offical_id": "RUGBY_29" }, "geometry": { "type": "Point", "coordinates": [ -1.264307059, 52.375648474 ] } },
{ "type": "Feature", "properties": { "name": "Caldecott Park Toilets Caldecott Park", "payment_info": "20p", "accessible": "Unknown", "radar": "Unknown", "women": "True", "men": "True", "baby_change": "False", "Mon": "07:00-21:00", "Tue": "07:00-21:00", "Wed": "07:00-21:00", "Thu": "07:00-21:00", "Fri": "07:00-21:00", "Sat": "07:00-21:00", "Sun": "07:00-21:00", "index_right": 42, "park_offical_id": "RUGBY_29" }, "geometry": { "type": "Point", "coordinates": [ -1.263261209, 52.375821767 ] } },
{ "type": "Feature", "properties": { "name": "North Street Toilets North Street", "payment_info": "Free", "accessible": "False", "radar": "Unknown", "women": "True", "men": "True", "baby_change": "True", "Mon": "10:00-17:00", "Tue": "10:00-17:00", "Wed": "10:00-17:00", "Thu": "10:00-17:00", "Fri": "10:00-17:00", "Sat": "10:00-17:00", "Sun": "10:00-17:00", "index_right": 42, "park_offical_id": "RUGBY_29" }, "geometry": { "type": "Point", "coordinates": [ -1.262380934, 52.373991245 ] } },
{ "type": "Feature", "properties": { "name": "Art Gallery Museum and Library Little Elborow Street", "payment_info": "Free", "accessible": "False", "radar": "Unknown", "women": "True", "men": "True", "baby_change": "True", "Mon": "Unknown", "Tue": "Unknown", "Wed": "Unknown", "Thu": "Unknown", "Fri": "Unknown", "Sat": "Unknown", "Sun": "Unknown", "index_right": 42, "park_offical_id": "RUGBY_29" }, "geometry": { "type": "Point", "coordinates": [ -1.264446042, 52.371702594 ] } },
{ "type": "Feature", "properties": { "name": "Asda", "payment_info": "Free", "accessible": "True", "radar": "True", "women": "True", "men": "True", "baby_change": "True", "Mon": "00:00-00:00", "Tue": "00:00-00:00", "Wed": "00:00-00:00", "Thu": "00:00-00:00", "Fri": "00:00-00:00", "Sat": "00:00-00:00", "Sun": "00:00-00:00", "index_right": 42, "park_offical_id": "RUGBY_29" }, "geometry": { "type": "Point", "coordinates": [ -1.264377716, 52.372626418 ] } },
{ "type": "Feature", "properties": { "name": "Caldecott Park Caf Kiosk Caldecott Park", "payment_info": "Cost unknown", "accessible": "False", "radar": "Unknown", "women": "Unknown", "men": "Unknown", "baby_change": "False", "Mon": "10:00-17:00", "Tue": "10:00-17:00", "Wed": "10:00-17:00", "Thu": "10:00-17:00", "Fri": "10:00-17:00", "Sat": "10:00-17:00", "Sun": "10:00-17:00", "index_right": 42, "park_offical_id": "RUGBY_29" }, "geometry": { "type": "Point", "coordinates": [ -1.263216311, 52.377637528 ] } },
{ "type": "Feature", "properties": { "name": "Town Hall Evreux Way", "payment_info": "Cost unknown", "accessible": "False", "radar": "Unknown", "women": "True", "men": "True", "baby_change": "True", "Mon": "09:00-17:00", "Tue": "09:00-17:00", "Wed": "09:00-17:00", "Thu": "09:00-17:00", "Fri": "09:00-17:00", "Sat": "Closed", "Sun": "Closed", "index_right": 42, "park_offical_id": "RUGBY_29" }, "geometry": { "type": "Point", "coordinates": [ -1.263653117, 52.375221858 ] } }
]
}
