{
"type": "FeatureCollection",
"name": "TAMWO_43_toilets",
"crs": { "type": "name", "properties": { "name": "urn:ogc:def:crs:OGC:1.3:CRS84" } },
"features": [
{ "type": "Feature", "properties": { "name": "Ankerside", "payment_info": "Free", "accessible": "True", "radar": "Unknown", "women": "True", "men": "True", "baby_change": "True", "Mon": "09:00-17:00", "Tue": "09:00-17:00", "Wed": "09:00-17:00", "Thu": "09:00-17:00", "Fri": "09:00-17:00", "Sat": "09:00-17:00", "Sun": "09:00-17:00", "index_right": 37, "park_offical_id": "TAMWO_43" }, "geometry": { "type": "Point", "coordinates": [ -1.693143921, 52.632389996 ] } },
{ "type": "Feature", "properties": { "name": "Marks and Spencer", "payment_info": "Free", "accessible": "False", "radar": "Unknown", "women": "True", "men": "True", "baby_change": "True", "Mon": "Unknown", "Tue": "Unknown", "Wed": "Unknown", "Thu": "Unknown", "Fri": "Unknown", "Sat": "Unknown", "Sun": "Unknown", "index_right": 37, "park_offical_id": "TAMWO_43" }, "geometry": { "type": "Point", "coordinates": [ -1.699122456, 52.6254226 ] } },
{ "type": "Feature", "properties": { "name": "Next Store", "payment_info": "Free", "accessible": "Unknown", "radar": "Unknown", "women": "True", "men": "True", "baby_change": "Unknown", "Mon": "Unknown", "Tue": "Unknown", "Wed": "Unknown", "Thu": "Unknown", "Fri": "Unknown", "Sat": "Unknown", "Sun": "Unknown", "index_right": 37, "park_offical_id": "TAMWO_43" }, "geometry": { "type": "Point", "coordinates": [ -1.70232296, 52.628309225 ] } },
{ "type": "Feature", "properties": { "name": "Asda Tamworth", "payment_info": "Free", "accessible": "True", "radar": "False", "women": "True", "men": "True", "baby_change": "True", "Mon": "07:00-00:00", "Tue": "00:00-00:00", "Wed": "00:00-00:00", "Thu": "00:00-00:00", "Fri": "00:00-00:00", "Sat": "00:00-22:00", "Sun": "22:00-16:00", "index_right": 37, "park_offical_id": "TAMWO_43" }, "geometry": { "type": "Point", "coordinates": [ -1.701486111, 52.625606569 ] } },
{ "type": "Feature", "properties": { "name": "McDonalds", "payment_info": "Free", "accessible": "True", "radar": "Unknown", "women": "True", "men": "True", "baby_change": "True", "Mon": "Unknown", "Tue": "Unknown", "Wed": "Unknown", "Thu": "Unknown", "Fri": "Unknown", "Sat": "Unknown", "Sun": "Unknown", "index_right": 37, "park_offical_id": "TAMWO_43" }, "geometry": { "type": "Point", "coordinates": [ -1.704196483, 52.627703584 ] } },
{ "type": "Feature", "properties": { "name": "Tamworth Castle Grounds", "payment_info": "Free", "accessible": "True", "radar": "False", "women": "True", "men": "True", "baby_change": "True", "Mon": "Closed", "Tue": "09:00-15:00", "Wed": "Closed", "Thu": "Closed", "Fri": "09:00-15:00", "Sat": "09:00-15:00", "Sun": "09:00-15:00", "index_right": 37, "park_offical_id": "TAMWO_43" }, "geometry": { "type": "Point", "coordinates": [ -1.69607188, 52.631304823 ] } }
]
}
