{
"type": "FeatureCollection",
"name": "STAFF_19_toilets",
"crs": { "type": "name", "properties": { "name": "urn:ogc:def:crs:OGC:1.3:CRS84" } },
"features": [
{ "type": "Feature", "properties": { "name": "Asda Store", "payment_info": "Free", "accessible": "False", "radar": "Unknown", "women": "True", "men": "True", "baby_change": "Unknown", "Mon": "Unknown", "Tue": "Unknown", "Wed": "Unknown", "Thu": "Unknown", "Fri": "Unknown", "Sat": "Unknown", "Sun": "Unknown", "index_right": 42, "park_offical_id": "STAFF_19" }, "geometry": { "type": "Point", "coordinates": [ -2.10965395, 52.805297459 ] } },
{ "type": "Feature", "properties": { "name": "Tesco", "payment_info": "Free", "accessible": "True", "radar": "Unknown", "women": "True", "men": "True", "baby_change": "True", "Mon": "Unknown", "Tue": "Unknown", "Wed": "Unknown", "Thu": "Unknown", "Fri": "Unknown", "Sat": "Unknown", "Sun": "Unknown", "index_right": 42, "park_offical_id": "STAFF_19" }, "geometry": { "type": "Point", "coordinates": [ -2.119003094, 52.8019523 ] } },
{ "type": "Feature", "properties": { "name": "Victoria Park", "payment_info": "Free", "accessible": "True", "radar": "True", "women": "True", "men": "True", "baby_change": "Unknown", "Mon": "Unknown", "Tue": "Unknown", "Wed": "Unknown", "Thu": "Unknown", "Fri": "Unknown", "Sat": "Unknown", "Sun": "Unknown", "index_right": 42, "park_offical_id": "STAFF_19" }, "geometry": { "type": "Point", "coordinates": [ -2.119714916, 52.80395279 ] } },
{ "type": "Feature", "properties": { "name": "Marks and Spencer", "payment_info": "Free", "accessible": "True", "radar": "False", "women": "True", "men": "True", "baby_change": "True", "Mon": "09:00-17:00", "Tue": "09:00-17:00", "Wed": "09:00-17:00", "Thu": "09:00-17:00", "Fri": "09:00-17:00", "Sat": "09:00-17:00", "Sun": "10:00-16:00", "index_right": 42, "park_offical_id": "STAFF_19" }, "geometry": { "type": "Point", "coordinates": [ -2.112362981, 52.804671608 ] } },
{ "type": "Feature", "properties": { "name": "Victoria Park", "payment_info": "Free", "accessible": "True", "radar": "Unknown", "women": "True", "men": "True", "baby_change": "True", "Mon": "09:00-18:00", "Tue": "09:00-18:00", "Wed": "09:00-18:00", "Thu": "09:00-18:00", "Fri": "09:00-18:00", "Sat": "09:00-18:00", "Sun": "09:00-18:00", "index_right": 42, "park_offical_id": "STAFF_19" }, "geometry": { "type": "Point", "coordinates": [ -2.121911645, 52.805744984 ] } },
{ "type": "Feature", "properties": { "name": "Shire Hall Museum", "payment_info": "Free", "accessible": "True", "radar": "False", "women": "True", "men": "True", "baby_change": "True", "Mon": "11:00-16:00", "Tue": "11:00-16:00", "Wed": "Closed", "Thu": "Closed", "Fri": "11:00-16:00", "Sat": "11:00-16:00", "Sun": "11:00-16:00", "index_right": 42, "park_offical_id": "STAFF_19" }, "geometry": { "type": "Point", "coordinates": [ -2.116776645, 52.80730405 ] } },
{ "type": "Feature", "properties": { "name": "Staffordshire History Centre", "payment_info": "Free", "accessible": "True", "radar": "Unknown", "women": "True", "men": "True", "baby_change": "Unknown", "Mon": "Closed", "Tue": "10:00-16:00", "Wed": "10:00-16:00", "Thu": "10:00-16:00", "Fri": "10:00-16:00", "Sat": "10:00-16:00", "Sun": "Closed", "index_right": 42, "park_offical_id": "STAFF_19" }, "geometry": { "type": "Point", "coordinates": [ -2.114087641, 52.80678894 ] } },
{ "type": "Feature", "properties": { "name": "Cafe Nero", "payment_info": "Cost unknown", "accessible": "Unknown", "radar": "Unknown", "women": "True", "men": "True", "baby_change": "Unknown", "Mon": "Unknown", "Tue": "Unknown", "Wed": "Unknown", "Thu": "Unknown", "Fri": "Unknown", "Sat": "Unknown", "Sun": "Unknown", "index_right": 42, "park_offical_id": "STAFF_19" }, "geometry": { "type": "Point", "coordinates": [ -2.118248231, 52.808941595 ] } },
{ "type": "Feature", "properties": { "name": "Ancient High House Museum", "payment_info": "Free", "accessible": "False", "radar": "False", "women": "True", "men": "True", "baby_change": "Unknown", "Mon": "Closed", "Tue": "10:00-16:00", "Wed": "10:00-16:00", "Thu": "10:00-16:00", "Fri": "10:00-16:00", "Sat": "10:00-16:00", "Sun": "Closed", "index_right": 42, "park_offical_id": "STAFF_19" }, "geometry": { "type": "Point", "coordinates": [ -2.117174864, 52.806250856 ] } },
{ "type": "Feature", "properties": { "name": "Sainsburys", "payment_info": "Free", "accessible": "True", "radar": "Unknown", "women": "True", "men": "True", "baby_change": "True", "Mon": "Unknown", "Tue": "Unknown", "Wed": "Unknown", "Thu": "Unknown", "Fri": "Unknown", "Sat": "Unknown", "Sun": "Unknown", "index_right": 42, "park_offical_id": "STAFF_19" }, "geometry": { "type": "Point", "coordinates": [ -2.121498291, 52.808679133 ] } },
{ "type": "Feature", "properties": { "name": "Stafford Railway Station", "payment_info": "Free", "accessible": "True", "radar": "True", "women": "True", "men": "True", "baby_change": "True", "Mon": "Unknown", "Tue": "Unknown", "Wed": "Unknown", "Thu": "Unknown", "Fri": "Unknown", "Sat": "Unknown", "Sun": "Unknown", "index_right": 42, "park_offical_id": "STAFF_19" }, "geometry": { "type": "Point", "coordinates": [ -2.1222139, 52.8035968 ] } }
]
}
