{
"type": "FeatureCollection",
"name": "WOLVE_46_toilets",
"crs": { "type": "name", "properties": { "name": "urn:ogc:def:crs:OGC:1.3:CRS84" } },
"features": [
{ "type": "Feature", "properties": { "name": "Wolverhampton City Archives", "payment_info": "Cost unknown", "accessible": "True", "radar": "Unknown", "women": "True", "men": "True", "baby_change": "Unknown", "Mon": "Unknown", "Tue": "Unknown", "Wed": "Unknown", "Thu": "Unknown", "Fri": "Unknown", "Sat": "Unknown", "Sun": "Unknown", "index_right": 87, "park_offical_id": "WOLVE_46" }, "geometry": { "type": "Point", "coordinates": [ -2.130360603, 52.588649734 ] } },
{ "type": "Feature", "properties": { "name": "Coach Station", "payment_info": "Free", "accessible": "True", "radar": "True", "women": "True", "men": "True", "baby_change": "True", "Mon": "Unknown", "Tue": "Unknown", "Wed": "Unknown", "Thu": "Unknown", "Fri": "Unknown", "Sat": "Unknown", "Sun": "Unknown", "index_right": 87, "park_offical_id": "WOLVE_46" }, "geometry": { "type": "Point", "coordinates": [ -2.1259543, 52.5898108 ] } },
{ "type": "Feature", "properties": { "name": "Mander Centre", "payment_info": "Cost unknown", "accessible": "True", "radar": "Unknown", "women": "True", "men": "True", "baby_change": "True", "Mon": "09:00-17:00", "Tue": "09:00-17:00", "Wed": "09:00-17:00", "Thu": "09:00-17:00", "Fri": "09:00-17:00", "Sat": "09:00-17:00", "Sun": "09:00-17:00", "index_right": 87, "park_offical_id": "WOLVE_46" }, "geometry": { "type": "Point", "coordinates": [ -2.127774954, 52.583969471 ] } },
{ "type": "Feature", "properties": { "name": "Wolverhampton Station", "payment_info": "Free", "accessible": "True", "radar": "True", "women": "True", "men": "True", "baby_change": "True", "Mon": "05:30-22:30", "Tue": "05:30-22:30", "Wed": "05:30-22:30", "Thu": "05:30-22:30", "Fri": "05:30-22:30", "Sat": "05:30-22:30", "Sun": "07:30-21:15", "index_right": 87, "park_offical_id": "WOLVE_46" }, "geometry": { "type": "Point", "coordinates": [ -2.120889723, 52.58797174 ] } },
{ "type": "Feature", "properties": { "name": "Bilston Street Automatic", "payment_info": "Free", "accessible": "True", "radar": "Unknown", "women": "Unknown", "men": "Unknown", "baby_change": "Unknown", "Mon": "00:00-00:00", "Tue": "00:00-00:00", "Wed": "00:00-00:00", "Thu": "00:00-00:00", "Fri": "00:00-00:00", "Sat": "00:00-00:00", "Sun": "00:00-00:00", "index_right": 87, "park_offical_id": "WOLVE_46" }, "geometry": { "type": "Point", "coordinates": [ -2.125503123, 52.584088439 ] } },
{ "type": "Feature", "properties": { "name": "Wulfrun Centre", "payment_info": "Cost unknown", "accessible": "False", "radar": "Unknown", "women": "True", "men": "True", "baby_change": "True", "Mon": "09:00-17:00", "Tue": "09:00-17:00", "Wed": "09:00-17:00", "Thu": "09:00-17:00", "Fri": "09:00-17:00", "Sat": "09:00-17:00", "Sun": "09:00-17:00", "index_right": 87, "park_offical_id": "WOLVE_46" }, "geometry": { "type": "Point", "coordinates": [ -2.126052976, 52.583464259 ] } },
{ "type": "Feature", "properties": { "name": "Wolverhampton Art Gallery", "payment_info": "Free", "accessible": "False", "radar": "Unknown", "women": "True", "men": "True", "baby_change": "Unknown", "Mon": "09:00-17:00", "Tue": "09:00-17:00", "Wed": "09:00-17:00", "Thu": "09:00-17:00", "Fri": "09:00-17:00", "Sat": "09:00-17:00", "Sun": "09:00-17:00", "index_right": 87, "park_offical_id": "WOLVE_46" }, "geometry": { "type": "Point", "coordinates": [ -2.126927376, 52.58687025 ] } },
{ "type": "Feature", "properties": { "name": "ASDA", "payment_info": "Free", "accessible": "False", "radar": "Unknown", "women": "True", "men": "True", "baby_change": "Unknown", "Mon": "00:00-00:00", "Tue": "00:00-00:00", "Wed": "00:00-00:00", "Thu": "00:00-00:00", "Fri": "00:00-00:00", "Sat": "00:00-00:00", "Sun": "00:00-00:00", "index_right": 87, "park_offical_id": "WOLVE_46" }, "geometry": { "type": "Point", "coordinates": [ -2.128976583, 52.592498517 ] } },
{ "type": "Feature", "properties": { "name": "Bus Station", "payment_info": "20p", "accessible": "False", "radar": "Unknown", "women": "Unknown", "men": "Unknown", "baby_change": "Unknown", "Mon": "Unknown", "Tue": "Unknown", "Wed": "Unknown", "Thu": "Unknown", "Fri": "Unknown", "Sat": "Unknown", "Sun": "Unknown", "index_right": 87, "park_offical_id": "WOLVE_46" }, "geometry": { "type": "Point", "coordinates": [ -2.122126, 52.5861732 ] } },
{ "type": "Feature", "properties": { "name": "WCityStopinfo", "payment_info": "Free", "accessible": "True", "radar": "True", "women": "True", "men": "True", "baby_change": "True", "Mon": "Unknown", "Tue": "Unknown", "Wed": "Unknown", "Thu": "Unknown", "Fri": "Unknown", "Sat": "Unknown", "Sun": "Unknown", "index_right": 87, "park_offical_id": "WOLVE_46" }, "geometry": { "type": "Point", "coordinates": [ -2.1293425, 52.5853838 ] } }
]
}
