{
"type": "FeatureCollection",
"name": "BIRMI_16631_toilets",
"crs": { "type": "name", "properties": { "name": "urn:ogc:def:crs:OGC:1.3:CRS84" } },
"features": [
{ "type": "Feature", "properties": { "name": "Grosvenor Shopping centre ", "payment_info": "Free", "accessible": "True", "radar": "Unknown", "women": "True", "men": "True", "baby_change": "Unknown", "Mon": "Unknown", "Tue": "Unknown", "Wed": "Unknown", "Thu": "Unknown", "Fri": "Unknown", "Sat": "Unknown", "Sun": "Unknown", "index_right": 255, "park_offical_id": "BIRMI_16631" }, "geometry": { "type": "Point", "coordinates": [ -1.968154907, 52.41689142 ] } },
{ "type": "Feature", "properties": { "name": "Northfield Leisure Centre", "payment_info": "Free", "accessible": "True", "radar": "False", "women": "True", "men": "True", "baby_change": "Unknown", "Mon": "Unknown", "Tue": "Unknown", "Wed": "Unknown", "Thu": "Unknown", "Fri": "Unknown", "Sat": "Unknown", "Sun": "Unknown", "index_right": 255, "park_offical_id": "BIRMI_16631" }, "geometry": { "type": "Point", "coordinates": [ -1.972117424, 52.412013956 ] } },
{ "type": "Feature", "properties": { "name": "Starbucks ", "payment_info": "Free", "accessible": "Unknown", "radar": "Unknown", "women": "True", "men": "True", "baby_change": "Unknown", "Mon": "Unknown", "Tue": "Unknown", "Wed": "Unknown", "Thu": "Unknown", "Fri": "Unknown", "Sat": "Unknown", "Sun": "Unknown", "index_right": 255, "park_offical_id": "BIRMI_16631" }, "geometry": { "type": "Point", "coordinates": [ -1.972056627, 52.416459538 ] } },
{ "type": "Feature", "properties": { "name": "Sainsburys ", "payment_info": "Free", "accessible": "True", "radar": "False", "women": "True", "men": "True", "baby_change": "True", "Mon": "07:00-22:00", "Tue": "07:00-22:00", "Wed": "07:00-22:00", "Thu": "07:00-22:00", "Fri": "07:00-22:00", "Sat": "07:00-22:00", "Sun": "10:00-16:00", "index_right": 255, "park_offical_id": "BIRMI_16631" }, "geometry": { "type": "Point", "coordinates": [ -1.974406242, 52.412672751 ] } },
{ "type": "Feature", "properties": { "name": "The Black Horse ", "payment_info": "Free", "accessible": "True", "radar": "Unknown", "women": "True", "men": "True", "baby_change": "Unknown", "Mon": "Unknown", "Tue": "Unknown", "Wed": "Unknown", "Thu": "Unknown", "Fri": "Unknown", "Sat": "Unknown", "Sun": "Unknown", "index_right": 255, "park_offical_id": "BIRMI_16631" }, "geometry": { "type": "Point", "coordinates": [ -1.973519325, 52.411891795 ] } }
]
}
