{
"type": "FeatureCollection",
"name": "BIRMI_42_toilets",
"crs": { "type": "name", "properties": { "name": "urn:ogc:def:crs:OGC:1.3:CRS84" } },
"features": [
{ "type": "Feature", "properties": { "name": "Bullring Toilets  Upper Level", "payment_info": "No Charge", "accessible": "True", "radar": "Unknown", "women": "True", "men": "True", "baby_change": "True", "Mon": "09:00-17:00", "Tue": "09:00-17:00", "Wed": "09:00-17:00", "Thu": "09:00-17:00", "Fri": "09:00-17:00", "Sat": "09:00-17:00", "Sun": "09:00-17:00", "index_right": 624, "park_offical_id": "BIRMI_42" }, "geometry": { "type": "Point", "coordinates": [ -1.8943857, 52.4773925 ] } },
{ "type": "Feature", "properties": { "name": "Birmingham Snow Hill Station", "payment_info": "Free", "accessible": "True", "radar": "True", "women": "True", "men": "True", "baby_change": "True", "Mon": "06:00-23:00", "Tue": "06:00-23:00", "Wed": "06:00-23:00", "Thu": "06:00-23:00", "Fri": "06:00-23:00", "Sat": "06:00-23:00", "Sun": "06:00-23:00", "index_right": 624, "park_offical_id": "BIRMI_42" }, "geometry": { "type": "Point", "coordinates": [ -1.899820964, 52.48358956 ] } },
{ "type": "Feature", "properties": { "name": "Bullring Toilets  Lower Levels", "payment_info": "No Charge", "accessible": "True", "radar": "Unknown", "women": "True", "men": "True", "baby_change": "True", "Mon": "09:00-17:00", "Tue": "09:00-17:00", "Wed": "09:00-17:00", "Thu": "09:00-17:00", "Fri": "09:00-17:00", "Sat": "09:00-17:00", "Sun": "09:00-17:00", "index_right": 624, "park_offical_id": "BIRMI_42" }, "geometry": { "type": "Point", "coordinates": [ -1.89591676, 52.477248962 ] } },
{ "type": "Feature", "properties": { "name": "Grand Central shopping centre", "payment_info": "Free", "accessible": "False", "radar": "False", "women": "Unknown", "men": "Unknown", "baby_change": "True", "Mon": "Unknown", "Tue": "Unknown", "Wed": "Unknown", "Thu": "Unknown", "Fri": "Unknown", "Sat": "Unknown", "Sun": "Unknown", "index_right": 624, "park_offical_id": "BIRMI_42" }, "geometry": { "type": "Point", "coordinates": [ -1.898236871, 52.478069057 ] } },
{ "type": "Feature", "properties": { "name": "Birmingham Moor Street Station", "payment_info": "Free", "accessible": "False", "radar": "False", "women": "True", "men": "True", "baby_change": "True", "Mon": "Unknown", "Tue": "Unknown", "Wed": "Unknown", "Thu": "Unknown", "Fri": "Unknown", "Sat": "Unknown", "Sun": "Unknown", "index_right": 624, "park_offical_id": "BIRMI_42" }, "geometry": { "type": "Point", "coordinates": [ -1.891776, 52.4786748 ] } },
{ "type": "Feature", "properties": { "name": "St Martin in the Bull Ring", "payment_info": "Free", "accessible": "False", "radar": "Unknown", "women": "True", "men": "True", "baby_change": "Unknown", "Mon": "09:00-17:00", "Tue": "09:00-17:00", "Wed": "09:00-17:00", "Thu": "09:00-17:00", "Fri": "09:00-17:00", "Sat": "09:00-17:00", "Sun": "09:00-17:00", "index_right": 624, "park_offical_id": "BIRMI_42" }, "geometry": { "type": "Point", "coordinates": [ -1.893151402, 52.476853612 ] } },
{ "type": "Feature", "properties": { "name": "Bullring Toilets  Check Levels", "payment_info": "No Charge", "accessible": "True", "radar": "Unknown", "women": "True", "men": "True", "baby_change": "True", "Mon": "09:00-17:00", "Tue": "09:00-17:00", "Wed": "09:00-17:00", "Thu": "09:00-17:00", "Fri": "09:00-17:00", "Sat": "09:00-17:00", "Sun": "09:00-17:00", "index_right": 624, "park_offical_id": "BIRMI_42" }, "geometry": { "type": "Point", "coordinates": [ -1.8931095, 52.4782121 ] } },
{ "type": "Feature", "properties": { "name": "Unknown", "payment_info": "Free", "accessible": "False", "radar": "Unknown", "women": "Unknown", "men": "Unknown", "baby_change": "Unknown", "Mon": "Unknown", "Tue": "Unknown", "Wed": "Unknown", "Thu": "Unknown", "Fri": "Unknown", "Sat": "Unknown", "Sun": "Unknown", "index_right": 624, "park_offical_id": "BIRMI_42" }, "geometry": { "type": "Point", "coordinates": [ -1.8928873, 52.4848691 ] } },
{ "type": "Feature", "properties": { "name": "Unknown", "payment_info": "Free", "accessible": "False", "radar": "Unknown", "women": "Unknown", "men": "Unknown", "baby_change": "Unknown", "Mon": "Unknown", "Tue": "Unknown", "Wed": "Unknown", "Thu": "Unknown", "Fri": "Unknown", "Sat": "Unknown", "Sun": "Unknown", "index_right": 624, "park_offical_id": "BIRMI_42" }, "geometry": { "type": "Point", "coordinates": [ -1.8929889, 52.4828922 ] } },
{ "type": "Feature", "properties": { "name": "Urinals", "payment_info": "Free", "accessible": "False", "radar": "Unknown", "women": "False", "men": "True", "baby_change": "Unknown", "Mon": "Unknown", "Tue": "Unknown", "Wed": "Unknown", "Thu": "Unknown", "Fri": "Unknown", "Sat": "Unknown", "Sun": "Unknown", "index_right": 624, "park_offical_id": "BIRMI_42" }, "geometry": { "type": "Point", "coordinates": [ -1.8804222, 52.4775291 ] } }
]
}
