{
"type": "FeatureCollection",
"name": "BIRMI_16684_toilets",
"crs": { "type": "name", "properties": { "name": "urn:ogc:def:crs:OGC:1.3:CRS84" } },
"features": [
{ "type": "Feature", "properties": { "name": "Bullring Toilets  Upper Level", "payment_info": "No Charge", "accessible": "True", "radar": "Unknown", "women": "True", "men": "True", "baby_change": "True", "Mon": "09:00-17:00", "Tue": "09:00-17:00", "Wed": "09:00-17:00", "Thu": "09:00-17:00", "Fri": "09:00-17:00", "Sat": "09:00-17:00", "Sun": "09:00-17:00", "index_right": 267, "park_offical_id": "BIRMI_16684" }, "geometry": { "type": "Point", "coordinates": [ -1.8943857, 52.4773925 ] } },
{ "type": "Feature", "properties": { "name": "New Street Railway Station", "payment_info": "Free", "accessible": "False", "radar": "Unknown", "women": "True", "men": "True", "baby_change": "True", "Mon": "Unknown", "Tue": "Unknown", "Wed": "Unknown", "Thu": "Unknown", "Fri": "Unknown", "Sat": "Unknown", "Sun": "Unknown", "index_right": 267, "park_offical_id": "BIRMI_16684" }, "geometry": { "type": "Point", "coordinates": [ -1.9000071, 52.4773539 ] } },
{ "type": "Feature", "properties": { "name": "Birmingham Snow Hill Station", "payment_info": "Free", "accessible": "True", "radar": "True", "women": "True", "men": "True", "baby_change": "True", "Mon": "06:00-23:00", "Tue": "06:00-23:00", "Wed": "06:00-23:00", "Thu": "06:00-23:00", "Fri": "06:00-23:00", "Sat": "06:00-23:00", "Sun": "06:00-23:00", "index_right": 267, "park_offical_id": "BIRMI_16684" }, "geometry": { "type": "Point", "coordinates": [ -1.899820964, 52.48358956 ] } },
{ "type": "Feature", "properties": { "name": "Bullring Toilets  Lower Levels", "payment_info": "No Charge", "accessible": "True", "radar": "Unknown", "women": "True", "men": "True", "baby_change": "True", "Mon": "09:00-17:00", "Tue": "09:00-17:00", "Wed": "09:00-17:00", "Thu": "09:00-17:00", "Fri": "09:00-17:00", "Sat": "09:00-17:00", "Sun": "09:00-17:00", "index_right": 267, "park_offical_id": "BIRMI_16684" }, "geometry": { "type": "Point", "coordinates": [ -1.89591676, 52.477248962 ] } },
{ "type": "Feature", "properties": { "name": "St Chads Cathedral", "payment_info": "Free", "accessible": "True", "radar": "Unknown", "women": "Unknown", "men": "Unknown", "baby_change": "Unknown", "Mon": "09:00-17:00", "Tue": "09:00-17:00", "Wed": "09:00-17:00", "Thu": "09:00-17:00", "Fri": "09:00-17:00", "Sat": "09:00-17:00", "Sun": "09:00-17:00", "index_right": 267, "park_offical_id": "BIRMI_16684" }, "geometry": { "type": "Point", "coordinates": [ -1.89884305, 52.485704027 ] } },
{ "type": "Feature", "properties": { "name": "Grand Central shopping centre", "payment_info": "Free", "accessible": "False", "radar": "False", "women": "Unknown", "men": "Unknown", "baby_change": "True", "Mon": "Unknown", "Tue": "Unknown", "Wed": "Unknown", "Thu": "Unknown", "Fri": "Unknown", "Sat": "Unknown", "Sun": "Unknown", "index_right": 267, "park_offical_id": "BIRMI_16684" }, "geometry": { "type": "Point", "coordinates": [ -1.898236871, 52.478069057 ] } },
{ "type": "Feature", "properties": { "name": "Waterloo Street Automatic Toilet OUT OF USE", "payment_info": "20p", "accessible": "False", "radar": "False", "women": "Unknown", "men": "Unknown", "baby_change": "Unknown", "Mon": "00:00-00:00", "Tue": "00:00-00:00", "Wed": "00:00-00:00", "Thu": "00:00-00:00", "Fri": "00:00-00:00", "Sat": "00:00-00:00", "Sun": "00:00-00:00", "index_right": 267, "park_offical_id": "BIRMI_16684" }, "geometry": { "type": "Point", "coordinates": [ -1.9022214, 52.4799682 ] } },
{ "type": "Feature", "properties": { "name": "New Street Station disabled", "payment_info": "Free", "accessible": "True", "radar": "True", "women": "Unknown", "men": "Unknown", "baby_change": "False", "Mon": "Unknown", "Tue": "Unknown", "Wed": "Unknown", "Thu": "Unknown", "Fri": "Unknown", "Sat": "Unknown", "Sun": "Unknown", "index_right": 267, "park_offical_id": "BIRMI_16684" }, "geometry": { "type": "Point", "coordinates": [ -1.898408532, 52.477228003 ] } },
{ "type": "Feature", "properties": { "name": "Birmingham Moor Street Station", "payment_info": "Free", "accessible": "False", "radar": "False", "women": "True", "men": "True", "baby_change": "True", "Mon": "Unknown", "Tue": "Unknown", "Wed": "Unknown", "Thu": "Unknown", "Fri": "Unknown", "Sat": "Unknown", "Sun": "Unknown", "index_right": 267, "park_offical_id": "BIRMI_16684" }, "geometry": { "type": "Point", "coordinates": [ -1.891776, 52.4786748 ] } },
{ "type": "Feature", "properties": { "name": "St Martin in the Bull Ring", "payment_info": "Free", "accessible": "False", "radar": "Unknown", "women": "True", "men": "True", "baby_change": "Unknown", "Mon": "09:00-17:00", "Tue": "09:00-17:00", "Wed": "09:00-17:00", "Thu": "09:00-17:00", "Fri": "09:00-17:00", "Sat": "09:00-17:00", "Sun": "09:00-17:00", "index_right": 267, "park_offical_id": "BIRMI_16684" }, "geometry": { "type": "Point", "coordinates": [ -1.893151402, 52.476853612 ] } },
{ "type": "Feature", "properties": { "name": "Bullring Toilets  Check Levels", "payment_info": "No Charge", "accessible": "True", "radar": "Unknown", "women": "True", "men": "True", "baby_change": "True", "Mon": "09:00-17:00", "Tue": "09:00-17:00", "Wed": "09:00-17:00", "Thu": "09:00-17:00", "Fri": "09:00-17:00", "Sat": "09:00-17:00", "Sun": "09:00-17:00", "index_right": 267, "park_offical_id": "BIRMI_16684" }, "geometry": { "type": "Point", "coordinates": [ -1.8931095, 52.4782121 ] } },
{ "type": "Feature", "properties": { "name": "Unknown", "payment_info": "Free", "accessible": "False", "radar": "Unknown", "women": "Unknown", "men": "Unknown", "baby_change": "Unknown", "Mon": "Unknown", "Tue": "Unknown", "Wed": "Unknown", "Thu": "Unknown", "Fri": "Unknown", "Sat": "Unknown", "Sun": "Unknown", "index_right": 267, "park_offical_id": "BIRMI_16684" }, "geometry": { "type": "Point", "coordinates": [ -1.8928873, 52.4848691 ] } },
{ "type": "Feature", "properties": { "name": "Waterhall", "payment_info": "Free", "accessible": "Unknown", "radar": "Unknown", "women": "True", "men": "True", "baby_change": "Unknown", "Mon": "Unknown", "Tue": "Unknown", "Wed": "Unknown", "Thu": "Unknown", "Fri": "Unknown", "Sat": "Unknown", "Sun": "Unknown", "index_right": 267, "park_offical_id": "BIRMI_16684" }, "geometry": { "type": "Point", "coordinates": [ -1.903595924, 52.480387258 ] } },
{ "type": "Feature", "properties": { "name": "Unknown", "payment_info": "Free", "accessible": "False", "radar": "Unknown", "women": "Unknown", "men": "Unknown", "baby_change": "Unknown", "Mon": "Unknown", "Tue": "Unknown", "Wed": "Unknown", "Thu": "Unknown", "Fri": "Unknown", "Sat": "Unknown", "Sun": "Unknown", "index_right": 267, "park_offical_id": "BIRMI_16684" }, "geometry": { "type": "Point", "coordinates": [ -1.8929889, 52.4828922 ] } }
]
}
