{
"type": "FeatureCollection",
"name": "SOLIH_26_toilets",
"crs": { "type": "name", "properties": { "name": "urn:ogc:def:crs:OGC:1.3:CRS84" } },
"features": [
{ "type": "Feature", "properties": { "name": "Touchwood Shopping Centre Cloisters Walk", "payment_info": "000", "accessible": "False", "radar": "Unknown", "women": "True", "men": "True", "baby_change": "True", "Mon": "09:00-17:00", "Tue": "09:00-17:00", "Wed": "09:00-17:00", "Thu": "09:00-17:00", "Fri": "09:00-17:00", "Sat": "09:00-17:00", "Sun": "09:00-17:00", "index_right": 34, "park_offical_id": "SOLIH_26" }, "geometry": { "type": "Point", "coordinates": [ -1.780208945, 52.412856535 ] } },
{ "type": "Feature", "properties": { "name": "Touchwood Car Park", "payment_info": "Free", "accessible": "False", "radar": "Unknown", "women": "True", "men": "True", "baby_change": "True", "Mon": "Unknown", "Tue": "Unknown", "Wed": "Unknown", "Thu": "Unknown", "Fri": "Unknown", "Sat": "Unknown", "Sun": "Unknown", "index_right": 34, "park_offical_id": "SOLIH_26" }, "geometry": { "type": "Point", "coordinates": [ -1.778991222, 52.411801264 ] } },
{ "type": "Feature", "properties": { "name": "Mell Square Toilets 46 Drury Lane", "payment_info": "Free", "accessible": "False", "radar": "True", "women": "True", "men": "True", "baby_change": "True", "Mon": "08:00-18:00", "Tue": "08:00-18:00", "Wed": "08:00-18:00", "Thu": "08:00-18:00", "Fri": "08:00-18:00", "Sat": "08:00-18:00", "Sun": "Closed", "index_right": 34, "park_offical_id": "SOLIH_26" }, "geometry": { "type": "Point", "coordinates": [ -1.775155663, 52.413880697 ] } },
{ "type": "Feature", "properties": { "name": "Solihull Station", "payment_info": "Free", "accessible": "True", "radar": "True", "women": "True", "men": "True", "baby_change": "Unknown", "Mon": "05:30-00:00", "Tue": "05:30-00:00", "Wed": "05:30-00:00", "Thu": "05:30-00:00", "Fri": "05:30-00:00", "Sat": "06:30-00:00", "Sun": "09:10-00:00", "index_right": 34, "park_offical_id": "SOLIH_26" }, "geometry": { "type": "Point", "coordinates": [ -1.7881356, 52.4142181 ] } },
{ "type": "Feature", "properties": { "name": "John Lewis toilet", "payment_info": "Free", "accessible": "Unknown", "radar": "False", "women": "True", "men": "True", "baby_change": "Unknown", "Mon": "Unknown", "Tue": "Unknown", "Wed": "Unknown", "Thu": "Unknown", "Fri": "Unknown", "Sat": "Unknown", "Sun": "Unknown", "index_right": 34, "park_offical_id": "SOLIH_26" }, "geometry": { "type": "Point", "coordinates": [ -1.780562997, 52.413685478 ] } },
{ "type": "Feature", "properties": { "name": "Morrisons", "payment_info": "Free", "accessible": "True", "radar": "Unknown", "women": "True", "men": "True", "baby_change": "Unknown", "Mon": "Unknown", "Tue": "Unknown", "Wed": "Unknown", "Thu": "Unknown", "Fri": "Unknown", "Sat": "Unknown", "Sun": "Unknown", "index_right": 34, "park_offical_id": "SOLIH_26" }, "geometry": { "type": "Point", "coordinates": [ -1.773996949, 52.413241301 ] } }
]
}
