{
"type": "FeatureCollection",
"name": "WARWI_13",
"crs": { "type": "name", "properties": { "name": "urn:ogc:def:crs:OGC:1.3:CRS84" } },
"features": [
{ "type": "Feature", "properties": { "osm_id": 1710417445, "name": "Ivy and Stanley Kelly", "amenity": "bench", "man_made": null, "leisure": null, "playground": null, "memorial": "plaque" }, "geometry": { "type": "Point", "coordinates": [ -1.5363304, 52.2938298 ] } },
{ "type": "Feature", "properties": { "osm_id": 1710417451, "name": null, "amenity": "bench", "man_made": null, "leisure": null, "playground": null, "memorial": null }, "geometry": { "type": "Point", "coordinates": [ -1.5359647, 52.2938546 ] } },
{ "type": "Feature", "properties": { "osm_id": 1710417448, "name": "Paul Bridgeman", "amenity": "bench", "man_made": null, "leisure": null, "playground": null, "memorial": "plaque" }, "geometry": { "type": "Point", "coordinates": [ -1.5362642, 52.2938604 ] } },
{ "type": "Feature", "properties": { "osm_id": 1710417440, "name": "Beryl Bright", "amenity": "bench", "man_made": null, "leisure": null, "playground": null, "memorial": "plaque" }, "geometry": { "type": "Point", "coordinates": [ -1.5360642, 52.2938719 ] } },
{ "type": "Feature", "properties": { "osm_id": 7920017561, "name": "Standbridge family", "amenity": "bench", "man_made": null, "leisure": null, "playground": null, "memorial": "plaque" }, "geometry": { "type": "Point", "coordinates": [ -1.5354669, 52.294075 ] } },
{ "type": "Feature", "properties": { "osm_id": 1704397806, "name": null, "amenity": "bench", "man_made": null, "leisure": null, "playground": null, "memorial": null }, "geometry": { "type": "Point", "coordinates": [ -1.5367742, 52.2941795 ] } },
{ "type": "Feature", "properties": { "osm_id": 1891172129, "name": "Colin Robertson", "amenity": "bench", "man_made": null, "leisure": null, "playground": null, "memorial": "plaque" }, "geometry": { "type": "Point", "coordinates": [ -1.536893, 52.2944143 ] } },
{ "type": "Feature", "properties": { "osm_id": 7945516952, "name": null, "amenity": "bench", "man_made": null, "leisure": null, "playground": null, "memorial": null }, "geometry": { "type": "Point", "coordinates": [ -1.5355825, 52.2944182 ] } }
]
}
